[
  {
    "feature_type": "offices",
    "lat": 46.5164241,
    "lon": 6.5619629,
    "tags": {
      "description": "The project of creating the computer model of the brain.c",
      "name": "Blue Brain Project",
      "office": "research",
      "source": "http://bluebrain.epfl.ch/",
      "website": "https://bluebrain.epfl.ch/",
      "wikidata": "Q885651",
      "wikipedia": "en:Blue Brain Project"
    },
    "distance_to_station": 295.64579998665414
  },
  {
    "feature_type": "offices",
    "lat": 46.5204944,
    "lon": 6.5680142,
    "tags": {
      "level": "0",
      "name": "gnugen",
      "office": "association",
      "opening_hours": "\"by appointment\"",
      "website": "https://gnugen.ch"
    },
    "distance_to_station": 354.73815993795773
  },
  {
    "feature_type": "offices",
    "lat": 46.5166981,
    "lon": 6.5609927,
    "tags": {
      "addr:city": "Lausanne",
      "addr:postcode": "1015",
      "addr:street": "EPFL Innovation Park",
      "name": "Nestl\u00e9 Institute of Health Sciences",
      "office": "research",
      "short_name": "NIHS",
      "website": "https://www.nestleinstitutehealthsciences.com",
      "wheelchair": "yes"
    },
    "distance_to_station": 341.39305924286157
  },
  {
    "feature_type": "offices",
    "lat": 46.5173445,
    "lon": 6.5627693,
    "tags": {
      "addr:city": "Lausanne",
      "addr:postcode": "1015",
      "addr:street": "EPFL, Innovation Park, Bld C",
      "name": "Global UTM Association (GUTMA)",
      "office": "company",
      "opening_hours": "Mo-Fr 09:00-17:00",
      "website": "https://gutma.org/contact/"
    },
    "distance_to_station": 187.29179908443325
  },
  {
    "feature_type": "offices",
    "lat": 46.5193637,
    "lon": 6.5665491,
    "tags": {
      "addr:city": "Lausanne",
      "addr:postcode": "1015",
      "addr:street": "Chemin des Machines",
      "amenity": "research_institute",
      "name": "Laboratory for Multiscale Mechanics Modeling",
      "office": "research",
      "short_name": "LAMMM"
    },
    "distance_to_station": 186.1071585865369
  },
  {
    "feature_type": "offices",
    "lat": 46.5247729,
    "lon": 6.5637165,
    "tags": {
      "addr:city": "Ecublens",
      "addr:housenumber": "13",
      "addr:postcode": "1024",
      "addr:street": "Chemin de la Raye",
      "aerospace:product": "robot",
      "company": "aerospace",
      "description": "Space debris removal",
      "email": "info@clearspace.today",
      "name": "ClearSpace",
      "office": "company",
      "robot:type": "spaceflight",
      "website": "https://clearspace.today"
    },
    "distance_to_station": 746.8531649639341
  },
  {
    "feature_type": "offices",
    "lat": 46.5153289,
    "lon": 6.5654738,
    "tags": {
      "check_date": "2023-04-13",
      "fixme": "Find a better type",
      "name": "Mirabelle & Balcon - ferme p\u00e9dagogique",
      "office": "association",
      "website": "https://mirabelle-et-balcon.ch/"
    },
    "distance_to_station": 311.5824633100899
  },
  {
    "feature_type": "offices",
    "lat": 46.5204538,
    "lon": 6.5680156,
    "tags": {
      "level": "1",
      "name": "Unipoly",
      "office": "association",
      "website": "https://unipoly.ch"
    },
    "distance_to_station": 351.44804026374806
  },
  {
    "feature_type": "offices",
    "lat": 46.5174031,
    "lon": 6.5626645,
    "tags": {
      "addr:postcode": "1015",
      "addr:street": "Route Cantonale",
      "contact:facebook": "globalidsa",
      "contact:twitter": "GlobalIDSA",
      "email": "contact@globalid.swiss",
      "name": "Global ID SA",
      "office": "company",
      "phone": "+41 21 353 99 89",
      "website": "https://globalid.swiss"
    },
    "distance_to_station": 191.74191825743725
  },
  {
    "feature_type": "offices",
    "lat": 46.516595,
    "lon": 6.5627562,
    "tags": {
      "addr:postcode": "1015",
      "addr:street": "EPFL quartier de l'innovation Daniel Borel Innovation Center",
      "contact:facebook": "Logitech",
      "contact:instagram": "logitech",
      "contact:twitter": "Logitech",
      "name": "Logitech Europe S.A.",
      "office": "company",
      "phone": "+41 21 863 55 11",
      "website": "https://www.logitech.com"
    },
    "distance_to_station": 237.69522699330952
  },
  {
    "feature_type": "offices",
    "lat": 46.520577,
    "lon": 6.5663207,
    "tags": {
      "addr:floor": "0",
      "description": "Local de l'Association G\u00e9n\u00e9rale pour les \u00e9tudiant.e.s du Poly",
      "name": "AGEPoly",
      "office": "association"
    },
    "distance_to_station": 294.0594110235812
  }
]