[
  {
    "feature_type": "hotels",
    "lat": 46.80222,
    "lon": 7.1534586,
    "tags": {
      "addr:city": "Fribourg",
      "addr:housenumber": "14",
      "addr:postcode": "1700",
      "addr:street": "Grand-Places",
      "brand": "NH Hotels",
      "brand:wikidata": "Q1604631",
      "name": "NH Fribourg",
      "operator": "NH Hotels",
      "phone": "+41 263519191",
      "tourism": "hotel"
    },
    "distance_to_station": 221.97439322651195
  },
  {
    "feature_type": "hotels",
    "lat": 46.8029014,
    "lon": 7.1625321,
    "tags": {
      "addr:housenumber": "12",
      "addr:postcode": "1700",
      "addr:street": "Planche-Sup\u00e9rieure",
      "name": "Sauvage",
      "name:de": "Le Sauvage",
      "name:en": "Le Sauvage",
      "name:fr": "Le Sauvage",
      "phone": "+41263473060",
      "tourism": "hotel",
      "website": "https://le-sauvage.ch/"
    },
    "distance_to_station": 813.0893909748241
  },
  {
    "feature_type": "hotels",
    "lat": 46.7992302,
    "lon": 7.1503668,
    "tags": {
      "addr:city": "Fribourg",
      "addr:housenumber": "13",
      "addr:postcode": "1700",
      "addr:street": "Rue du Simplon",
      "name": "Alpha",
      "tourism": "hotel",
      "website": "http://www.alpha-hotel.ch/fr/index.html"
    },
    "distance_to_station": 538.343890937414
  },
  {
    "feature_type": "hotels",
    "lat": 46.8117672,
    "lon": 7.1570954,
    "tags": {
      "addr:city": "Fribourg",
      "addr:housenumber": "1",
      "addr:postcode": "1700",
      "addr:street": "Chemin Montrevers",
      "check_date": "2024-06-04",
      "name": "H\u00f4tel Aux Remparts",
      "operator": "H&R Aux Remparts SA",
      "phone": "+41 26 347 56 56",
      "tourism": "hotel",
      "website": "https://www.hotel-remparts.ch/fr/contact/"
    },
    "distance_to_station": 953.1293878103924
  },
  {
    "feature_type": "hotels",
    "lat": 46.8066813,
    "lon": 7.160263,
    "tags": {
      "addr:city": "Fribourg",
      "addr:country": "CH",
      "addr:housenumber": "11",
      "addr:postcode": "1700",
      "addr:street": "Rue Pierre-Aeby",
      "internet_access": "wlan",
      "name": "Hine Adon",
      "tourism": "hotel"
    },
    "distance_to_station": 701.1025122350434
  },
  {
    "feature_type": "hotels",
    "lat": 46.8052688,
    "lon": 7.1573683,
    "tags": {
      "addr:housenumber": "76",
      "addr:street": "Rue de Lausanne",
      "name": "Hotel du faucon",
      "tourism": "hotel",
      "website": "https://hotel-du-faucon.ch/"
    },
    "distance_to_station": 436.26696777216273
  }
]