[
  {
    "feature_type": "bus_stops",
    "lat": 46.9436745,
    "lon": 7.44865,
    "tags": {
      "bus": "yes",
      "highway": "bus_stop",
      "name": "Helvetiaplatz",
      "public_transport": "stop_position"
    },
    "distance_to_station": 311.0105033223003
  },
  {
    "feature_type": "bus_stops",
    "lat": 46.9404009,
    "lon": 7.4566839,
    "tags": {
      "bus": "yes",
      "highway": "bus_stop",
      "name": "Thunplatz",
      "network": "Libero",
      "network:wikidata": "Q2394193",
      "operator": "Bernmobil",
      "public_transport": "stop_position",
      "uic_name": "Bern, Thunplatz",
      "uic_ref": "8589003"
    },
    "distance_to_station": 463.41630457791183
  },
  {
    "feature_type": "bus_stops",
    "lat": 46.9392566,
    "lon": 7.447457,
    "tags": {
      "bus": "yes",
      "highway": "bus_stop",
      "name": "Tillierstrasse",
      "public_transport": "stop_position"
    },
    "distance_to_station": 332.3487340552662
  },
  {
    "feature_type": "bus_stops",
    "lat": 46.9406427,
    "lon": 7.447716,
    "tags": {
      "bus": "yes",
      "highway": "bus_stop",
      "name": "Aegertenstrasse",
      "public_transport": "stop_position"
    },
    "distance_to_station": 237.32823184713402
  },
  {
    "feature_type": "bus_stops",
    "lat": 46.9412267,
    "lon": 7.4479445,
    "tags": {
      "bus": "yes",
      "highway": "bus_stop",
      "name": "Aegertenstrasse",
      "public_transport": "stop_position"
    },
    "distance_to_station": 209.9706361292524
  },
  {
    "feature_type": "bus_stops",
    "lat": 46.9439033,
    "lon": 7.4488069,
    "tags": {
      "bus": "yes",
      "highway": "bus_stop",
      "name": "Helvetiaplatz",
      "public_transport": "stop_position"
    },
    "distance_to_station": 327.82668962787665
  },
  {
    "feature_type": "bus_stops",
    "lat": 46.9385394,
    "lon": 7.4507727,
    "tags": {
      "bench": "yes",
      "bin": "yes",
      "bus": "yes",
      "highway": "bus_stop",
      "name": "Tierpark",
      "public_transport": "platform",
      "shelter": "yes",
      "source": "BAV Bundesamt f\u00fcr Verkehr DIDOK 2014",
      "wheelchair": "yes"
    },
    "distance_to_station": 302.19870652412345
  },
  {
    "feature_type": "bus_stops",
    "lat": 46.9381691,
    "lon": 7.4503261,
    "tags": {
      "bus": "yes",
      "highway": "bus_stop",
      "name": "Tierpark",
      "public_transport": "platform",
      "shelter": "no",
      "source": "BAV Bundesamt f\u00fcr Verkehr DIDOK 2014",
      "wheelchair": "yes"
    },
    "distance_to_station": 344.5708036453742
  },
  {
    "feature_type": "bus_stops",
    "lat": 46.9424266,
    "lon": 7.4531317,
    "tags": {
      "bus": "yes",
      "ele": "539",
      "highway": "bus_stop",
      "name": "Luisenstrasse",
      "network": "Libero",
      "network:wikidata": "Q2394193",
      "operator": "Bernmobil",
      "public_transport": "stop_position",
      "uic_name": "Bern, Luisenstrasse",
      "uic_ref": "8590006"
    },
    "distance_to_station": 225.21746941880596
  },
  {
    "feature_type": "bus_stops",
    "lat": 46.9423154,
    "lon": 7.4534345,
    "tags": {
      "bus": "yes",
      "ele": "539",
      "highway": "bus_stop",
      "name": "Luisenstrasse",
      "network": "Libero",
      "network:wikidata": "Q2394193",
      "operator": "Bernmobil",
      "public_transport": "stop_position",
      "uic_name": "Bern, Luisenstrasse",
      "uic_ref": "8590006"
    },
    "distance_to_station": 237.9925881038007
  },
  {
    "feature_type": "bus_stops",
    "lat": 46.9400069,
    "lon": 7.4481833,
    "tags": {
      "bench": "no",
      "bin": "yes",
      "bus": "yes",
      "highway": "bus_stop",
      "lit": "yes",
      "name": "Aegertenstrasse",
      "public_transport": "platform",
      "shelter": "no",
      "tactile_paving": "yes"
    },
    "distance_to_station": 236.87521681981286
  },
  {
    "feature_type": "bus_stops",
    "lat": 46.9401832,
    "lon": 7.4493809,
    "tags": {
      "bench": "no",
      "bin": "no",
      "bus": "yes",
      "highway": "bus_stop",
      "lit": "yes",
      "name": "Aegertenstrasse",
      "public_transport": "platform",
      "shelter": "no",
      "tactile_paving": "yes"
    },
    "distance_to_station": 156.30531161984726
  },
  {
    "feature_type": "bus_stops",
    "lat": 46.940454,
    "lon": 7.4567087,
    "tags": {
      "bus": "yes",
      "highway": "bus_stop",
      "name": "Thunplatz",
      "public_transport": "platform",
      "shelter": "no"
    },
    "distance_to_station": 464.087091645668
  }
]