[
  {
    "feature_type": "atms",
    "lat": 46.9477541,
    "lon": 7.44345,
    "tags": {
      "amenity": "atm",
      "brand": "UBS",
      "brand:wikidata": "Q193199",
      "name": "UBS",
      "operator": "UBS",
      "operator:wikidata": "Q193199",
      "wheelchair": "yes"
    },
    "distance_to_station": 393.01208839078515
  },
  {
    "feature_type": "atms",
    "lat": 46.9472866,
    "lon": 7.4435136,
    "tags": {
      "amenity": "atm",
      "brand": "Berner Kantonalbank",
      "brand:de": "Berner Kantonalbank",
      "brand:fr": "Banque Cantonale Bernoise",
      "brand:wikidata": "Q824579",
      "cash_in": "yes",
      "contact:email": "bekb@bekb.ch",
      "currency:CHF": "yes",
      "currency:EUR": "yes",
      "drive_through": "no",
      "name:de": "Berner Kantonalbank",
      "name:fr": "Banque Cantonale Bernoise",
      "operator": "Berner Kantonalbank",
      "operator:wikidata": "Q824579",
      "short_name": "BEKB",
      "short_name:de": "BEKB",
      "short_name:fr": "BCBE",
      "wheelchair": "yes"
    },
    "distance_to_station": 368.52474621644086
  },
  {
    "feature_type": "atms",
    "lat": 46.947384,
    "lon": 7.4443248,
    "tags": {
      "addr:city": "Bern",
      "addr:country": "CH",
      "addr:housenumber": "4",
      "addr:postcode": "3011",
      "addr:street": "Bundesplatz",
      "amenity": "atm",
      "currency:CHF": "yes",
      "currency:EUR": "yes",
      "drive_through": "no",
      "fee": "yes",
      "name": "Bancomat Valiant Bundeplatz",
      "operator": "Valiant Bank AG",
      "source": "website and survey",
      "wheelchair": "yes"
    },
    "distance_to_station": 315.37120107714003
  },
  {
    "feature_type": "atms",
    "lat": 46.947786,
    "lon": 7.4522585,
    "tags": {
      "amenity": "atm",
      "check_date": "2025-05-13",
      "operator": "PostFinance",
      "operator:wikidata": "Q449233"
    },
    "distance_to_station": 361.59325387640945
  },
  {
    "feature_type": "atms",
    "lat": 46.9494104,
    "lon": 7.4438434,
    "tags": {
      "amenity": "atm",
      "brand": "Raiffeisen",
      "brand:wikidata": "Q681189",
      "check_date": "2023-01-09",
      "opening_hours": "24/7",
      "operator": "Raiffeisen",
      "operator:wikidata": "Q681189"
    },
    "distance_to_station": 481.4947041702317
  },
  {
    "feature_type": "atms",
    "lat": 46.947403,
    "lon": 7.4456648,
    "tags": {
      "amenity": "atm",
      "operator": "Bank Cler"
    },
    "distance_to_station": 228.17910697195958
  },
  {
    "feature_type": "atms",
    "lat": 46.9473957,
    "lon": 7.444663,
    "tags": {
      "amenity": "atm",
      "brand": "Credit Suisse",
      "brand:wikidata": "Q372657",
      "operator": "Credit Suisse",
      "operator:wikidata": "Q372657",
      "wheelchair": "yes"
    },
    "distance_to_station": 292.8273669080659
  },
  {
    "feature_type": "atms",
    "lat": 46.9476153,
    "lon": 7.4434695,
    "tags": {
      "amenity": "atm",
      "currency:CHF": "yes",
      "currency:EUR": "yes",
      "opening_hours": "24/7",
      "operator:wikidata": "Q449233",
      "wheelchair": "yes"
    },
    "distance_to_station": 385.1233966967879
  },
  {
    "feature_type": "atms",
    "lat": 46.9481298,
    "lon": 7.4524265,
    "tags": {
      "amenity": "atm",
      "brand": "Berner Kantonalbank",
      "brand:de": "Berner Kantonalbank",
      "brand:fr": "Banque Cantonale Bernoise",
      "brand:wikidata": "Q824579",
      "check_date": "2025-07-20",
      "name:de": "Berner Kantonalbank",
      "name:fr": "Banque Cantonale Bernoise",
      "operator": "Berner Kantonalbank",
      "operator:wikidata": "Q824579",
      "short_name": "BEKB",
      "short_name:de": "BEKB",
      "short_name:fr": "BCBE"
    },
    "distance_to_station": 392.31135992097427
  },
  {
    "feature_type": "atms",
    "lat": 46.948604,
    "lon": 7.4455931,
    "tags": {
      "amenity": "atm",
      "brand": "Migros Bank",
      "brand:de": "Migros Bank",
      "brand:fr": "Banque Migros",
      "brand:it": "Banca Migros",
      "brand:wikidata": "Q1593349",
      "currency:CHF": "yes",
      "name:de": "Migros Bank",
      "name:fr": "Banque Migros",
      "name:it": "Banca Migros",
      "operator": "Migros Bank",
      "operator:wikidata": "Q1593349",
      "wheelchair": "yes"
    },
    "distance_to_station": 328.12964271528637
  },
  {
    "feature_type": "atms",
    "lat": 46.9486078,
    "lon": 7.4455677,
    "tags": {
      "amenity": "atm",
      "brand": "Migros Bank",
      "brand:de": "Migros Bank",
      "brand:fr": "Banque Migros",
      "brand:it": "Banca Migros",
      "brand:wikidata": "Q1593349",
      "check_date": "2022-09-22",
      "currency:CHF": "yes",
      "name:de": "Migros Bank",
      "name:fr": "Banque Migros",
      "name:it": "Banca Migros",
      "operator": "Migros Bank",
      "operator:wikidata": "Q1593349"
    },
    "distance_to_station": 329.594721338726
  },
  {
    "feature_type": "atms",
    "lat": 46.9488141,
    "lon": 7.4455707,
    "tags": {
      "amenity": "atm",
      "brand": "Migros Bank",
      "brand:de": "Migros Bank",
      "brand:fr": "Banque Migros",
      "brand:it": "Banca Migros",
      "brand:wikidata": "Q1593349",
      "cash_in": "no",
      "check_date": "2025-07-19",
      "name:de": "Migros Bank",
      "name:fr": "Banque Migros",
      "name:it": "Banca Migros",
      "operator": "Migros Bank",
      "operator:wikidata": "Q1593349"
    },
    "distance_to_station": 348.3599991546897
  },
  {
    "feature_type": "atms",
    "lat": 46.9494066,
    "lon": 7.4438595,
    "tags": {
      "amenity": "atm",
      "brand": "Raiffeisen",
      "brand:wikidata": "Q681189",
      "check_date": "2023-01-22",
      "opening_hours": "24/7",
      "operator": "Raiffeisen",
      "operator:wikidata": "Q681189"
    },
    "distance_to_station": 480.36171567661154
  },
  {
    "feature_type": "atms",
    "lat": 46.9481781,
    "lon": 7.4449713,
    "tags": {
      "amenity": "atm",
      "brand": "Postomat",
      "cash_in": "no",
      "indoor": "yes"
    },
    "distance_to_station": 323.706131600256
  },
  {
    "feature_type": "atms",
    "lat": 46.9493026,
    "lon": 7.4436023,
    "tags": {
      "amenity": "atm",
      "location": "outdoor",
      "opening_hours": "24/7",
      "operator": "Cr\u00e9dit Agricole next bank"
    },
    "distance_to_station": 485.37089179485974
  }
]